{
"type": "FeatureCollection",
"crs": { "type": "name", "properties": { "name": "urn:ogc:def:crs:OGC:1.3:CRS84" } },
                                                                                
"features": [
{ "type": "Feature", "properties": { "OBJECTID": null, "name": "เขื่อนแม่กวงอุดมธารา", "Lat": 18.920556, "Long": 99.131111, "Tambol": "ลวงเหนือ", "Amphor": "ดอยสะเก็ด", "Province": "เชียงใหม่", "Basin": null, "RID_Office": 1.000000, "RID_Agency": "โครงการส่งน้ำและบำรุงรักษาแม่กวง", "Type": "โครงการชลประทานขนาดใหญ่", "dam_id": 1 }, "geometry": { "type": "Point", "coordinates": [ 99.131224081829828, 18.918989604825814 ] } },
{ "type": "Feature", "properties": { "OBJECTID": null, "name": "เขื่อนแม่งัดสมบูรณ์ชล", "Lat": 19.166389, "Long": 99.058611, "Tambol": "ช่อแล", "Amphor": "แม่แตง", "Province": "เชียงใหม่", "Basin": null, "RID_Office": 1.000000, "RID_Agency": "โครงการส่งน้ำและบำรุงรักษาแม่แฝก-แม่งัด", "Type": "โครงการชลประทานขนาดใหญ่", "dam_id": 2 }, "geometry": { "type": "Point", "coordinates": [ 99.058661361042738, 19.164778243357617 ] } },
{ "type": "Feature", "properties": { "OBJECTID": null, "name": "เขื่อนกิ่วคอหมา", "Lat": 18.779444, "Long": 99.131389, "Tambol": "ปงดอน", "Amphor": "แจ้ห่ม", "Province": "ลำปาง", "Basin": null, "RID_Office": 2.000000, "RID_Agency": "โครงการส่งน้ำและบำรุงรักษากิ่วลม-กิ่วคอหมา", "Type": "โครงการชลประทานขนาดใหญ่", "dam_id": 3 }, "geometry": { "type": "Point", "coordinates": [ 99.631177270090035, 18.778037214287036 ] } },
{ "type": "Feature", "properties": { "OBJECTID": null, "name": "เขื่อนกิ่วลม", "Lat": 18.520278, "Long": 99.126944, "Tambol": "บุญนาคพัฒนา", "Amphor": "เมืองลำปาง", "Province": "ลำปาง", "Basin": null, "RID_Office": 2.000000, "RID_Agency": "โครงการส่งน้ำและบำรุงรักษากิ่วลม-กิ่วคอหมา", "Type": "โครงการชลประทานขนาดใหญ่", "dam_id": 4 }, "geometry": { "type": "Point", "coordinates": [ 99.626724467308264, 18.518890183881101 ] } },
{ "type": "Feature", "properties": { "OBJECTID": null, "name": "เขื่อนแควน้อย", "Lat": 17.194207, "Long": 100.429420, "Tambol": "บ้านพญาแมน", "Amphor": "วัดโบสถ์", "Province": "พิษณุโลก", "Basin": null, "RID_Office": 3.000000, "RID_Agency": "โครงการส่งน้ำและบำรุงรักษาแควน้อย", "Type": "โครงการชลประทานขนาดใหญ่", "dam_id": 5 }, "geometry": { "type": "Point", "coordinates": [ 100.429423623781588, 17.194207019251319 ] } },
{ "type": "Feature", "properties": { "OBJECTID": null, "name": "เขื่อนลำตะคอง", "Lat": 14.861667, "Long": 101.565278, "Tambol": "คลองไผ่", "Amphor": "สีคิ้ว", "Province": "นครราชสีมา", "Basin": null, "RID_Office": 8.000000, "RID_Agency": "โครงการส่งน้ำและบำรุงรักษาลำตะคอง", "Type": "โครงการชลประทานขนาดใหญ่", "dam_id": 12 }, "geometry": { "type": "Point", "coordinates": [ 101.565033777941451, 14.860399695603766 ] } },
{ "type": "Feature", "properties": { "OBJECTID": null, "name": "เขื่อนลำพระเพลิง", "Lat": 14.590556, "Long": 101.841944, "Tambol": "ลำนางแก้ว", "Amphor": "ปักธงชัย", "Province": "นครราชสีมา", "Basin": null, "RID_Office": 8.000000, "RID_Agency": "โครงการส่งน้ำและบำรุงรักษาลำพระเพลิง", "Type": "โครงการชลประทานขนาดใหญ่", "dam_id": 13 }, "geometry": { "type": "Point", "coordinates": [ 101.841604130476554, 14.58950611490684 ] } },
{ "type": "Feature", "properties": { "OBJECTID": null, "name": "เขื่อนบางพระ", "Lat": 13.211944, "Long": 100.970000, "Tambol": "บางพระ", "Amphor": "ศรีราชา", "Province": "ชลบุรี", "Basin": null, "RID_Office": 9.000000, "RID_Agency": "โครงการชลประทานชลบุรี", "Type": "โครงการชลประทานขนาดใหญ่", "dam_id": 14 }, "geometry": { "type": "Point", "coordinates": [ 100.969644154629279, 13.210906805431856 ] } },
{ "type": "Feature", "properties": { "OBJECTID": null, "name": "เขื่อนประแสร์", "Lat": 12.979722, "Long": 101.573056, "Tambol": "ชุมแสง", "Amphor": "วังจันทร์", "Province": "ระยอง", "Basin": null, "RID_Office": 9.000000, "RID_Agency": "โครงการส่งน้ำและบำรุงรักษาประแสร์", "Type": "โครงการชลประทานขนาดใหญ่", "dam_id": 15 }, "geometry": { "type": "Point", "coordinates": [ 101.572811813389194, 12.978615732431711 ] } },
{ "type": "Feature", "properties": { "OBJECTID": null, "name": "เขื่อนหนองปลาไหล", "Lat": 12.928611, "Long": 101.287778, "Tambol": "ปลวกแดง", "Amphor": "ปลวกแดง", "Province": "ระยอง", "Basin": null, "RID_Office": 9.000000, "RID_Agency": "โครงการชลประทานระยอง", "Type": "โครงการชลประทานขนาดใหญ่", "dam_id": 16 }, "geometry": { "type": "Point", "coordinates": [ 101.287389260951159, 12.927644884977731 ] } },
{ "type": "Feature", "properties": { "OBJECTID": null, "name": "เขื่อนคลองสียัด", "Lat": 13.442222, "Long": 101.657222, "Tambol": "ท่าตะเกียบ", "Amphor": "ท่าตะเกียบ", "Province": "ฉะเชิงเทรา", "Basin": null, "RID_Office": 9.000000, "RID_Agency": "โครงการส่งน้ำและบำรุงรักษาคลองสียัด", "Type": "โครงการชลประทานขนาดใหญ่", "dam_id": 17 }, "geometry": { "type": "Point", "coordinates": [ 101.656928664681715, 13.441294215653778 ] } },
{ "type": "Feature", "properties": { "OBJECTID": null, "name": "เขื่อนคลองท่าด่าน", "Lat": 14.308333, "Long": 101.324444, "Tambol": "หินตั้ง", "Amphor": "เมืองนครนายก", "Province": "นครนายก", "Basin": null, "RID_Office": 9.000000, "RID_Agency": "โครงการส่งน้ำและบำรุงรักษาเขื่อนขุนด่านปราการชล", "Type": "โครงการชลประทานขนาดใหญ่", "dam_id": 18 }, "geometry": { "type": "Point", "coordinates": [ 101.323978409210412, 14.307223119443684 ] } },
{ "type": "Feature", "properties": { "OBJECTID": null, "name": "เขื่อนป่าสักชลสิทธิ์", "Lat": 14.850000, "Long": 101.094722, "Tambol": "วังม่วง", "Amphor": "วังม่วง", "Province": "สระบุรี", "Basin": null, "RID_Office": 10.000000, "RID_Agency": "โครงการส่งน้ำและบำรุงรักษาเขื่อนป่าสักชลสิทธิ์", "Type": "โครงการชลประทานขนาดใหญ่", "dam_id": 19 }, "geometry": { "type": "Point", "coordinates": [ 101.09443689717267, 14.84874877318196 ] } },
{ "type": "Feature", "properties": { "OBJECTID": null, "name": "เขื่อนทับเสลา", "Lat": 15.523056, "Long": 99.144722, "Tambol": "ระบำ", "Amphor": "ลานสัก", "Province": "อุทัยธานี", "Basin": null, "RID_Office": 12.000000, "RID_Agency": "โครงการส่งน้ำและบำรุงรักษาทับเสลา", "Type": "โครงการชลประทานขนาดใหญ่", "dam_id": 20 }, "geometry": { "type": "Point", "coordinates": [ 99.477931498117968, 15.521800634793681 ] } },
{ "type": "Feature", "properties": { "OBJECTID": null, "name": "เขื่อนกระเสียว", "Lat": 14.834444, "Long": 99.165556, "Tambol": "ด่านช้าง", "Amphor": "ด่านช้าง", "Province": "สุพรรณบุรี", "Basin": null, "RID_Office": 12.000000, "RID_Agency": "โครงการส่งน้ำและบำรุงรักษากระเสียว", "Type": "โครงการชลประทานขนาดใหญ่", "dam_id": 21 }, "geometry": { "type": "Point", "coordinates": [ 99.665427898998345, 14.833292707661352 ] } },
{ "type": "Feature", "properties": { "OBJECTID": null, "name": "เขื่อนแก่งกระจาน", "Lat": 12.913333, "Long": 99.137500, "Tambol": "แก่งกระจาน", "Amphor": "แก่งกระจาน", "Province": "เพชรบุรี", "Basin": null, "RID_Office": 14.000000, "RID_Agency": "โครงการส่งน้ำและบำรุงรักษาเพชรบุรี", "Type": "โครงการชลประทานขนาดใหญ่", "dam_id": 22 }, "geometry": { "type": "Point", "coordinates": [ 99.637317293653581, 12.912424166057994 ] } },
{ "type": "Feature", "properties": { "OBJECTID": null, "name": "เขื่อนปราณบุรี", "Lat": 12.468056, "Long": 99.143056, "Tambol": "เขาจ้าว", "Amphor": "ปราณบุรี", "Province": "ประจวบคีรีขันธ์", "Basin": null, "RID_Office": 14.000000, "RID_Agency": "โครงการส่งน้ำและบำรุงรักษาปราณบุรี", "Type": "โครงการชลประทานขนาดใหญ่", "dam_id": 23 }, "geometry": { "type": "Point", "coordinates": [ 99.809513736874962, 12.46699442668336 ] } },
{ "type": "Feature", "properties": { "OBJECTID": null, "name": "เขื่อนวชิราลงกรณ์", "Lat": 14.983611, "Long": 98.113056, "Tambol": "ปรังเผล", "Amphor": "สังขละบุรี", "Province": "กาญจนบุรี", "Basin": null, "RID_Office": 0.000000, "RID_Agency": "กฟผ.", "Type": "โครงการชลประทานขนาดใหญ่", "dam_id": 24 }, "geometry": { "type": "Point", "coordinates": [ 98.61306569400368, 14.982421035933827 ] } },
{ "type": "Feature", "properties": { "OBJECTID": null, "name": "เขื่อนสิรินธร", "Lat": 15.210278, "Long": 105.430278, "Tambol": "นิคมลำโดมน้อย", "Amphor": "สิรินธร", "Province": "อุบลราชธานี", "Basin": null, "RID_Office": 0.000000, "RID_Agency": "กฟผ.", "Type": "โครงการชลประทานขนาดใหญ่", "dam_id": 25 }, "geometry": { "type": "Point", "coordinates": [ 105.434801598613589, 15.132096834720429 ] } },
{ "type": "Feature", "properties": { "OBJECTID": null, "name": "เขื่อนจุฬาภรณ์", "Lat": 16.535278, "Long": 101.651667, "Tambol": "ทุ่งลุยลาย", "Amphor": "คอนสาร", "Province": "ชัยภูมิ", "Basin": null, "RID_Office": 0.000000, "RID_Agency": "กฟผ.", "Type": "โครงการชลประทานขนาดใหญ่", "dam_id": 28 }, "geometry": { "type": "Point", "coordinates": [ 101.651399277945828, 16.533942599722472 ] } },
{ "type": "Feature", "properties": { "OBJECTID": null, "name": "เขื่อนสิริกิติ์", "Lat": 17.763889, "Long": 100.567778, "Tambol": "ผาเลือด", "Amphor": "ท่าปลา", "Province": "อุตรดิตถ์", "Basin": null, "RID_Office": 0.000000, "RID_Agency": "กฟผ.", "Type": "โครงการชลประทานขนาดใหญ่", "dam_id": 29 }, "geometry": { "type": "Point", "coordinates": [ 100.567457552713535, 17.762352321346718 ] } },
{ "type": "Feature", "properties": { "OBJECTID": null, "name": "เขื่อนภูมิพล", "Lat": 17.240000, "Long": 98.143056, "Tambol": "ย่านรี", "Amphor": "สามเงา", "Province": "ตาก", "Basin": null, "RID_Office": 0.000000, "RID_Agency": "กฟผ.", "Type": "โครงการชลประทานขนาดใหญ่", "dam_id": 30 }, "geometry": { "type": "Point", "coordinates": [ 98.976520959618185, 17.238684791593496 ] } },
{ "type": "Feature", "properties": { "OBJECTID": null, "name": "เขื่อนศรีนครินทร์", "Lat": 14.408889, "Long": 99.128056, "Tambol": "ท่ากระดาน", "Amphor": "ศรีสวัสดิ์", "Province": "กาญจนบุรี", "Basin": null, "RID_Office": 0.000000, "RID_Agency": "กฟผ.", "Type": "โครงการชลประทานขนาดใหญ่", "dam_id": 31 }, "geometry": { "type": "Point", "coordinates": [ 99.127952625286781, 14.407794952831127 ] } },
{ "type": "Feature", "properties": { "OBJECTID": null, "name": "เขื่อนรัชชประภา", "Lat": 8.146111, "Long": 98.126111, "Tambol": "เขาพัง", "Amphor": "บ้านตาขุน", "Province": "สุราษฎ์ธานี", "Basin": null, "RID_Office": 0.000000, "RID_Agency": "กฟผ.", "Type": "โครงการชลประทานขนาดใหญ่", "dam_id": 32 }, "geometry": { "type": "Point", "coordinates": [ 98.792859577464156, 8.978819996269113 ] } },
{ "type": "Feature", "properties": { "OBJECTID": null, "name": "เขื่อนบางลาง", "Lat": 6.150833, "Long": 101.277778, "Tambol": "เขื่อนบางลาง", "Amphor": "บันนังสตา", "Province": "ยะลา", "Basin": null, "RID_Office": 0.000000, "RID_Agency": "กฟผ.", "Type": "โครงการชลประทานขนาดใหญ่", "dam_id": 33 }, "geometry": { "type": "Point", "coordinates": [ 101.277517948582286, 6.150354109474322 ] } },
{ "type": "Feature", "properties": { "OBJECTID": null, "name": "เขื่อนห้วยหลวง", "Lat": 17.364444, "Long": 102.573889, "Tambol": "เมืองเพีย", "Amphor": "กุดจับ", "Province": "อุดรธานี", "Basin": null, "RID_Office": 5.000000, "RID_Agency": "โครงการส่งน้ำและบำรุงรักษาห้วยหลวง", "Type": "โครงการชลประทานขนาดใหญ่", "dam_id": 6 }, "geometry": { "type": "Point", "coordinates": [ 102.574130083628646, 17.362947103759669 ] } },
{ "type": "Feature", "properties": { "OBJECTID": null, "name": "เขื่อนน้ำอูน", "Lat": 17.303611, "Long": 103.755556, "Tambol": "แร่", "Amphor": "พังโคน", "Province": "สกลนคร", "Basin": null, "RID_Office": 5.000000, "RID_Agency": "โครงการส่งน้ำและบำรุงรักษาน้ำอูน", "Type": "โครงการชลประทานขนาดใหญ่", "dam_id": 7 }, "geometry": { "type": "Point", "coordinates": [ 103.75586766540566, 17.302214384602621 ] } },
{ "type": "Feature", "properties": { "OBJECTID": null, "name": "เขื่อนลำปาว", "Lat": 16.601111, "Long": 103.455556, "Tambol": "ลำคลอง", "Amphor": "เมืองกาฬสินธุ์", "Province": "กาฬสินธุ์", "Basin": null, "RID_Office": 6.000000, "RID_Agency": "โครงการส่งน้ำและบำรุงรักษาลำปาว", "Type": "โครงการชลประทานขนาดใหญ่", "dam_id": 8 }, "geometry": { "type": "Point", "coordinates": [ 103.455700099952196, 16.599762467638399 ] } },
{ "type": "Feature", "properties": { "OBJECTID": null, "name": "เขื่อนลำแชะ", "Lat": 14.418333, "Long": 102.274444, "Tambol": "โคกกระชาย", "Amphor": "ครบุรี", "Province": "นครราชสีมา", "Basin": null, "RID_Office": 8.000000, "RID_Agency": "โครงการส่งน้ำและบำรุงรักษามูลบน-ลำแชะ", "Type": "โครงการชลประทานขนาดใหญ่", "dam_id": 9 }, "geometry": { "type": "Point", "coordinates": [ 102.274944272203086, 14.417162855993659 ] } },
{ "type": "Feature", "properties": { "OBJECTID": null, "name": "เขื่อนมูลบน", "Lat": 14.485903, "Long": 102.144424, "Tambol": "จระเข้หิน", "Amphor": "ครบุรี", "Province": "นครราชสีมา", "Basin": null, "RID_Office": 8.000000, "RID_Agency": "โครงการส่งน้ำและบำรุงรักษามูลบน-ลำแชะ", "Type": "โครงการชลประทานขนาดใหญ่", "dam_id": 10 }, "geometry": { "type": "Point", "coordinates": [ 102.299998877865264, 14.83332572827576 ] } },
{ "type": "Feature", "properties": { "OBJECTID": null, "name": "เขื่อนลำนางรอง", "Lat": 14.296667, "Long": 102.770000, "Tambol": "โนนดินแดง", "Amphor": "โนนดินแดง", "Province": "บุรีรัมย์", "Basin": null, "RID_Office": 8.000000, "RID_Agency": "โครงการส่งน้ำและบำรุงรักษาลำนางรอง", "Type": "โครงการชลประทานขนาดใหญ่", "dam_id": 11 }, "geometry": { "type": "Point", "coordinates": [ 102.770252171255692, 14.295512109830522 ] } },
{ "type": "Feature", "properties": { "OBJECTID": null, "name": "เขื่อนอุบลรัตน์", "Lat": 16.772222, "Long": 102.625000, "Tambol": "เขื่อนอุบลรัตน์", "Amphor": "อุบลรัตน์", "Province": "ขอนแก่น", "Basin": null, "RID_Office": 0.000000, "RID_Agency": "กฟผ.", "Type": "โครงการชลประทานขนาดใหญ่", "dam_id": 26 }, "geometry": { "type": "Point", "coordinates": [ 102.62520480683078, 16.770768756485268 ] } },
{ "type": "Feature", "properties": { "OBJECTID": null, "name": "เขื่อนน้ำพุง", "Lat": 16.972222, "Long": 103.981667, "Tambol": "โคกภู", "Amphor": "ภูพาน", "Province": "สกลนคร", "Basin": null, "RID_Office": 0.000000, "RID_Agency": "กฟผ.", "Type": "โครงการชลประทานขนาดใหญ่", "dam_id": 27 }, "geometry": { "type": "Point", "coordinates": [ 103.981697342903075, 16.970745657244358 ] } }
]
}
